{
	"tiks": [
		{
			"lon": 35.9586693,
			"lat": 56.0360856,
			"desc": "город Волоколамск, Революционная, 5",
			"phone": "((496)-36) 2-40-01; 2-11-33",
			"members": 8,
			"url": "http://www.moscow_reg.vybory.izbirkom.ru/moscow_reg/ik/450400401058",
			"name": "Территориальная избирательная комиссия Волоколамского района"
		}
	],
	"uiks": [
		{
			"lon": 35.9477310181,
			"lat": 56.031729425,
			"addr": "город Волоколамск, Мелиораторов, 19",
			"obj": "филиал ГОУ ВПО «Московский государственный открытый университет» в городе Волоколамске",
			"url": "http://www.moscow_reg.vybory.izbirkom.ru/moscow_reg/ik/4504003127345",
			"number": 98,
			"count": null,
			"phone":"((496)-36) 2-94-24"
		},
		{
			"lon": 35.9468536377,
			"lat": 56.0479774475,
			"addr": "город Волоколамск, улица Текстильщиков, дом 15",
			"obj": "МУ «Городской Дом культуры „Текстильщик“»",
			"url": "http://www.moscow_reg.vybory.izbirkom.ru/moscow_reg/ik/4504003127378",
			"number": 99,
			"count": null,
			"phone":"((496)-36) 2-94-98"
		},
		{
			"lon": 35.9350347519,
			"lat": 56.05440188,
			"addr": "город Волоколамск, ул. Тихая, дом 4",
			"obj": "",
			"url": "http://www.moscow_reg.vybory.izbirkom.ru/moscow_reg/ik/4504003127407",
			"number": 100,
			"count": null,
			"phone":"((496)-36) 2-63-43"
		},
		{
			"lon": 35.9484726191,
			"lat": 56.0444045327,
			"addr": "город Волоколамск, ул. Катукова, д. 32",
			"obj": "МОУ «Волоколамская начальная общеобразовательная школа № 5»",
			"url": "http://www.moscow_reg.vybory.izbirkom.ru/moscow_reg/ik/4504003127437",
			"number": 101,
			"count": null,
			"phone":"((496)-36) 4-45-07"
		},
		{
			"lon": 36.0118961334,
			"lat": 56.0459475948,
			"addr": "деревня Ченцы, улица Советская, дом 5 А",
			"obj": "МУ «Ченецкий Дом культуры»",
			"url": "http://www.moscow_reg.vybory.izbirkom.ru/moscow_reg/ik/4504003127481",
			"number": 102,
			"count": null,
			"phone":"((496)-36) 2-51-52"
		},
		{
			"lon": 35.9316825867,
			"lat": 55.9969470154,
			"addr": "город Волоколамск, улица Советская, дом 11",
			"obj": "МОУ ДОД «Дом детского творчества»",
			"url": "http://www.moscow_reg.vybory.izbirkom.ru/moscow_reg/ik/4504003127505",
			"number": 103,
			"count": null,
			"phone":"((496)-36) 2-18-23"
		},
		{
			"lon": 35.9316825867,
			"lat": 55.9972470154,
			"addr": "город Волоколамск, улица Советская, дом 2",
			"obj": "МУ «Волоколамский районный Центр культуры и творчества „Родники“»",
			"url": "http://www.moscow_reg.vybory.izbirkom.ru/moscow_reg/ik/4504003127534",
			"number": 104,
			"count": null,
			"phone":"((496)-36) 2-37-31"
		},
		{
			"lon": 35.9616851807,
			"lat": 56.0272888861,
			"addr": "город Волоколамск, улица Панфилова, дом 42/3",
			"obj": "МОУ «Волоколамская средняя общеобразовательная школа № 2»",
			"url": "http://www.moscow_reg.vybory.izbirkom.ru/moscow_reg/ik/4504003127574",
			"number": 105,
			"count": null,
			"phone":"((496)-36) 2-22-05"
		},
		{
			"lon": 35.954990387,
			"lat": 56.0276665851,
			"addr": "город Волоколамск, улица Школьная, дом 12",
			"obj": "МОУ «Гимназия № 1 г. Волоколамска»",
			"url": "http://www.moscow_reg.vybory.izbirkom.ru/moscow_reg/ik/4504003127604",
			"number": 106,
			"count": null,
			"phone":"((496)-36) 2-15-35"
		},
		{
			"lon": 35.9496841431,
			"lat": 56.0305709839,
			"addr": "город Волоколамск, переулок Ново-Солдатский, дом 3",
			"obj": "ГБОУ СПО МО «Волоколамский колледж права, экономики и безопасности»",
			"url": "http://www.moscow_reg.vybory.izbirkom.ru/moscow_reg/ik/4504003127634",
			"number": 107,
			"count": null,
			"phone":"((496)-36) 2-54-68"
		},
		{
			"lon": 35.9478449821,
			"lat": 56.0305861338,
			"addr": "город Волоколамск, переулок Ново-Солдатский, дом 1",
			"obj": "МУ «Дворец спорта «Лама»",
			"url": "http://www.moscow_reg.vybory.izbirkom.ru/moscow_reg/ik/4504003127669",
			"number": 108,
			"count": null,
			"phone":"((496)-36) 2-54-68"
		},
		{
			"lon": 35.9315910339,
			"lat": 56.0139389038,
			"addr": "город Волоколамск, улица Пороховская, дом 3",
			"obj": "МУ «Городской Дом культуры «Волоколамец»",
			"url": "http://www.moscow_reg.vybory.izbirkom.ru/moscow_reg/ik/4504003127714",
			"number": 109,
			"count": null,
			"phone":"((496)-36) 72-262"
		},
		{
			"lon": 35.9316749573,
			"lat": 55.9971885681,
			"addr": "город Волоколамск, улица Волоколамская, дом 59",
			"obj": "МОУ «Пороховская основная общеобразовательная школа»",
			"url": "http://www.moscow_reg.vybory.izbirkom.ru/moscow_reg/ik/4504003127748",
			"number": 110,
			"count": null,
			"phone":"((496)-36) 2-34-11"
		},
		{
			"lon": 35.9328997135,
			"lat": 55.9930333169,
			"addr": "город Волоколамск, улица Терешковой, дом 18",
			"obj": "ОАО «Волоколамскагропромснаб»",
			"url": "http://www.moscow_reg.vybory.izbirkom.ru/moscow_reg/ik/4504003127778",
			"number": 111,
			"count": null,
			"phone":"((496)-36) 2-84-48"
		},
		{
			"lon": 35.9149718285,
			"lat": 56.103796304,
			"addr": "деревня Кашино, улица Ленина, дом 94",
			"obj": "администрация сельского поселения Кашинское",
			"url": "http://www.moscow_reg.vybory.izbirkom.ru/moscow_reg/ik/4504003127814",
			"number": 112,
			"count": null,
			"phone":"((496)-36) 31-232"
		},
		{
			"lon": 35.9683209658,
			"lat": 56.1225525763,
			"addr": "Волоколамский район, деревня Ботово, микрорайон, дом 12",
			"obj": "МДОУ «Детский сад № 15»",
			"url": "http://www.moscow_reg.vybory.izbirkom.ru/moscow_reg/ik/4504003127845",
			"number": 113,
			"count": null,
			"phone":"((496)-36) 64-119"
		},
		{
			"lon": 35.9886283875,
			"lat": 56.0773696899,
			"addr": "деревня Калистово, улица Центральная, дом 21",
			"obj": "МУ «Калистовский Дом культуры»",
			"url": "http://www.moscow_reg.vybory.izbirkom.ru/moscow_reg/ik/4504003127872",
			"number": 114,
			"count": null,
			"phone": "((496)-36) 2-62-78"
		},
		{
			"lon": 35.8662986755,
			"lat": 55.8549880981,
			"addr": "село Осташево, микрорайон, дом 1",
			"obj": "начальная школа МОУ «Осташевская средняя общеобразовательная школа»",
			"url": "http://www.moscow_reg.vybory.izbirkom.ru/moscow_reg/ik/4504003127898",
			"number": 115,
			"count": null,
			"phone":"((496)-36) 70-533"
		},
		{
			"lon": 35.8737487793,
			"lat": 55.8649635315,
			"addr": "село Осташево, ул. Школьная, д. 21",
			"obj": "МОУ «Осташевская средняя общеобразовательная школа»",
			"url": "http://www.moscow_reg.vybory.izbirkom.ru/moscow_reg/ik/4504003127935",
			"number": 116,
			"count": null,
			"phone":"((496)-36) 70-533"
		},
		{
			"lon": 35.7179832458,
			"lat": 55.7636489868,
			"addr": "Волоколамский район, село Болычево, улица Новая, дом 1 (или улица Центральная, дом 12)",
			"obj": "МУ «Болычевский Дом культуры»",
			"url": "http://www.moscow_reg.vybory.izbirkom.ru/moscow_reg/ik/4504003127965",
			"number": 117,
			"count": null,
			"phone":"((496)-36) 79-183"
		},
		{
			"lon": 35.9393234253,
			"lat": 56.1438446045,
			"addr": "село Спасс, улица Центральная, дом 47",
			"obj": "МУ «Спасский Дом культуры»",
			"url": "http://www.moscow_reg.vybory.izbirkom.ru/moscow_reg/ik/4504003127993",
			"number": 118,
			"count": null,
			"phone":"((496)-36) 76-275"
		},
		{
			"lon": 35.8379821777,
			"lat": 55.9034843445,
			"addr": "деревня Клишино, улица Центральная, дом 6",
			"obj": "",
			"url": "http://www.moscow_reg.vybory.izbirkom.ru/moscow_reg/ik/4504003128023",
			"number": 119,
			"count": null,
			"phone":"((496)-36) 78-191"
		},
		{
			"lon": 36.225769043,
			"lat": 55.9574050903,
			"addr": "Волоколамский район, деревня Судниково, улица Школьная, дом 12",
			"obj": "МДОУ «Детский сад № 17»",
			"url": "http://www.moscow_reg.vybory.izbirkom.ru/moscow_reg/ik/4504003128054",
			"number": 120,
			"count": null,
			"phone":"((496)-36) 77-169"
		},
		{
			"lon": 36.1314125061,
			"lat": 56.1721076965,
			"addr": "село Теряево, улица Теряевская, дом 92 А",
			"obj": "",
			"url": "http://www.moscow_reg.vybory.izbirkom.ru/moscow_reg/ik/4504003128084",
			"number": 121,
			"count": null,
			"phone":"((496)-36) 65-123"
		},
		{
			"lon": 36.2580108643,
			"lat": 56.1629447937,
			"addr": "Волоколамский район, село Шестаково, дом 7",
			"obj": "МОУ «Шестаковская средняя общеобразовательная школа»",
			"url": "http://www.moscow_reg.vybory.izbirkom.ru/moscow_reg/ik/4504003128115",
			"number": 122,
			"count": null,
			"phone":"((496)-36) 75-135"
		},
		{
			"lon": 36.017250061,
			"lat": 55.9854545593,
			"addr": "деревня Нелидово, улица Крестьянская, дом 18",
			"obj": "МУ «Нелидовский Дом культуры»",
			"url": "http://www.moscow_reg.vybory.izbirkom.ru/moscow_reg/ik/4504003128142",
			"number": 123,
			"count": null,
			"phone":"((496)-36) 69-221"
		},
		{
			"lon": 36.228377223,
			"lat": 56.0153414983,
			"addr": "деревня Гряды, микрорайон, дом 5 а",
			"obj": "МДОУ «Детский сад № 24»",
			"url": "http://www.moscow_reg.vybory.izbirkom.ru/moscow_reg/ik/4504003128174",
			"number": 124,
			"count": null,
			"phone":"((496)-36) 66-123"
		},
		{
			"lon": 35.8309328556,
			"lat": 56.043280905,
			"addr": "деревня Тимонино, улица Парковая, дом 2",
			"obj": "МУ «Тимонинский Дом культуры»",
			"url": "http://www.moscow_reg.vybory.izbirkom.ru/moscow_reg/ik/4504003128206",
			"number": 125,
			"count": null,
			"phone":"((496)-36) 2-15-32"
		},
		{
			"lon": 35.7324904203,
			"lat": 56.0266743678,
			"addr": "деревня Курьяново, улица Центральная, дом 60",
			"obj": "МУ «Курьяновский Дом культуры»",
			"url": "http://www.moscow_reg.vybory.izbirkom.ru/moscow_reg/ik/4504003128230",
			"number": 126,
			"count": null,
			"phone":"((496)-36) 60-144"
		},
		{
			"lon": 36.1996078491,
			"lat": 56.1201991972,
			"addr": "село Ильинское, ул. Центральная, дом 16",
			"obj": "МУ «Ильино-Ярополецкий Дом культуры»",
			"url": "http://www.moscow_reg.vybory.izbirkom.ru/moscow_reg/ik/4504003128257",
			"number": 127,
			"count": null,
			"phone":"((496)-36) 67-110"
		},
		{
			"lon": 35.8336043358,
			"lat": 56.1314713837,
			"addr": "село Ярополец, микрорайон, дом 13",
			"obj": "МУ «Ярополецкий Дом культуры»",
			"url": "http://www.moscow_reg.vybory.izbirkom.ru/moscow_reg/ik/4504003128296",
			"number": 128,
			"count": null,
			"phone":"((496)-36) 63-246"
		},
		{
			"lon": 36.2215995789,
			"lat": 55.9580421448,
			"addr": "поселок Сычево, улица Нерудная, дом 6",
			"obj": "МУ «Сычевский Дом культуры»",
			"url": "http://www.moscow_reg.vybory.izbirkom.ru/moscow_reg/ik/4504003128321",
			"number": 129,
			"count": null,
			"phone":"((496)-36) 74-164"
		}
	]
}
